{
  "city": [
    {
      "name": "Киев",
      "lat": "50.4501",
      "lng": "30.5234",
      "list": [
        { "type": 1, "title": "27.ua", "address": "02139, г. Киев, ", "address1": "ул. Братиславская, 11", "tel": "(044) 561-27-50", "lat": "50.4867426", "lng": "30.6095719" },
        { "type": 1, "title": "27.ua", "address": "03680, г. Киев, ", "address1": "ул. Б. Кольцевая, 1-Б", "tel": "(044) 206-26-03", "lat": "50.3772355", "lng": "30.4446334" },
        { "type": 2, "title": "Новая линия", "address": "08130, Киевская обл., с. Петропавловская Борщаговка, ", "address1": "ул. Хрустальная, 6", "tel": "(044) 206-26-03", "lat": "50.4394885", "lng": "30.3536904" },
        { "type": 2, "title": "Новая линия", "address": "08300, Киевская обл., г. Борисполь, ", "address1": "ул. Горбатюка, 2", "tel": "(044) 391-19-30(32)", "lat": "50.370092", "lng": "30.9099886" }
      ]
    },
    {
      "name": "Днепродзержинск",
      "lat": "48.5389422",
      "lng": "34.5406292",
      "list": [{ "type": 1, "title": "27.ua", "address": "Днепродзержинская обл., г. Днепродзержинск, ", "address1": "пересечение бул. Строителей и Дружбы Народов", "tel": "(056) 787-08-88", "lat": "48.602524", "lng": "34.578514" }]
    },
    {
      "name": "Каменец-Подольский",
      "lat": "48.6967162",
      "lng": "26.5825364",
      "list": [{ "type": 1, "title": "27.ua", "address": "32300, г. Каменец-Подольский, ", "address1": "ул. Хмельницкое шоссе, 11", "tel": "(03849) 6-49-99", "lat": "48.7065462", "lng": "26.5776604" }]
    },
    {
      "name": "Львов",
      "lat": "49.839683",
      "lng": "24.029717",
      "list": [{ "type": 2, "title": "Новая линия", "address": "79024, г. Львов, ", "address1": "ул. Б. Хмельницкого, 188-А", "tel": "(032) 235-11-45", "lat": "49.8636403", "lng": "24.0532941" }]
    }
  ]
}
